[
    {
        "name": "Joel's Mexican Restaurant",
        "summary": "Delicious and authentic mexican food at you local favorite!",
        "streetAddress": "229 Church Street",
        "city": "Sandpoint",
        "state": "Idaho",
        "zipCode": "83864",
        "url": "https://www.facebook.com/Joelsmex/",
        "longitude": -116.549911,
        "latitude": 48.273739,
        "rating": 4.8,
        "imgUrl": "https://media-cdn.tripadvisor.com/media/photo-s/0f/e7/21/67/photo1jpg.jpg",
        "type": "Mexican Food",
        "phone": "2082658991"
    },
    {
        "name": "MickDuffs Brewery",
        "summary": "A classic North Idaho brewery with triva every Tuesday night!",
        "streetAddress": "312 North First Avenue",
        "city": "Sandpoint",
        "state": "Idaho",
        "zipCode": "83864",
        "url": "https://www.mickduffs.com",
        "longitude": -116.547060,
        "latitude": 48.275480,
        "rating": 4.6,
        "imgUrl": "https://media-cdn.tripadvisor.com/media/photo-s/0b/ba/4f/4c/cool-interior.jpg",
        "type": "Brew Pub",
        "phone": "2082554351"
    },
    {
        "name": "Baxters on Cedar",
        "summary": "Warm tavern with exposed-brick walls, craft beer on tap & a comfort-food menu with a global twist.",
        "streetAddress": "109 Cedar St",
        "city": "Sandpoint",
        "state": "Idaho",
        "zipCode": "83864",
        "url": "http://www.baxtersoncedar.com",
        "longitude": -116.547960,
        "latitude": 48.276060,
        "rating": 4.4,
        "imgUrl": "https://s3-media0.fl.yelpcdn.com/bphoto/8u_xOlZt9AnIy61zW5c2-Q/l.jpg",
        "type": "New American",
        "phone": "2082298377"
    },
    {
        "name": "Spuds Waterfront Grill",
        "summary": "Mellow counter serve featuring baked potatoes, breakfast & deck seating with marina views.",
        "streetAddress": "202 N 2nd Ave",
        "city": "Sandpoint",
        "state": "Idaho",
        "zipCode": "83864",
        "url": "https://www.spudsonline.com",
        "longitude": -116.548660,
        "latitude": 48.274470,
        "rating": 4.6,
        "imgUrl": "https://media-cdn.tripadvisor.com/media/photo-s/04/03/00/92/spud-s.jpg",
        "type": "American",
        "phone": "2082654311"
    },
    {
        "name": "City Beach Organics",
        "summary": "Casual, wood-clad outpost serving organic breakfast & lunch fare alongside juices & smoothies.",
        "streetAddress": "117 N First Ave",
        "city": "Sandpoint",
        "state": "Idaho",
        "zipCode": "83864",
        "url": "http://citybeachorganics.com",
        "longitude": -116.548180,
        "latitude": 48.273820,
        "rating": 4.7,
        "imgUrl": "https://media-cdn.tripadvisor.com/media/photo-s/12/18/bf/de/do-yourself-a-favor-eat.jpg",
        "type": "Organic",
        "phone": "2082659919"
    }
]