[
    {
        "name": "Alpine Shop",
        "summary": "Alpine Shop is a family-owned business with a staff whose knowledge and tenure is second to none. Whether you’ve been a customer for 40 years or are just stopping in for the first time, we look forward to assisting you with your outdoor needs.",
        "streetAddress": "213 Church St",
        "city": "Sandpoint",
        "state": "Idaho",
        "zipCode": "83864",
        "url": "https://www.alpineshopsandpoint.com",
        "longitude": -116.549260,
        "latitude": 48.273790,
        "rating": 4.4,
        "imgUrl": "https://i3.ypcdn.com/blob/f5f466bb815b0a84225f086d3404d39ce98e63e7_400x260_crop.jpg",
        "type": "Clothing",
        "phone": "2082635157"
    },
    {
        "name": "Meadowbrook of Sandpoint",
        "summary": "Visit our store in downtown Sandpoint, Idaho and see a timeless selection of unique and affordable gifts, home decor and furnishings.",
        "streetAddress": "309 N First Ave",
        "city": "Sandpoint",
        "state": "Idaho",
        "zipCode": "83864",
        "url": "http://www.meadowbrookhomeandgift.com",
        "longitude": -116.547890,
        "latitude": 48.275360,
        "rating": 4.8,
        "imgUrl": "https://lh3.googleusercontent.com/proxy/3kqHbsdw7n_7qSWhaQNJo45eVml8Sf0CYwQPpBKzZgI0M5uKjbTzqwqOOIiF8ijgQ3ZRBrtWBw44Ms0fWODitWaos4yfbKhjjo9QLmi95osfWAFz6wuPv7mYL0QPY1jtl2AU_tJGbrtGzuGEwZvvPaxeIXRCe8WzJTfIHf571ex7ihAeD7OP9g",
        "type": "Furniture",
        "phone": "2082552824"
    },
    {
        "name": "Azalea Handpicked Style",
        "summary": "Consignment and gift boutique in downtown Sandpoint Idaho, specializing in men’s and women’s quality resale clothing and small-batch, sustainable goods.",
        "streetAddress": "322 N First Ave",
        "city": "Sandpoint",
        "state": "Idaho",
        "zipCode": "83864",
        "url": "https://www.facebook.com/azaleahandpickedstyle",
        "longitude": -116.547720,
        "latitude": 48.276010,
        "rating": 4.9,
        "imgUrl": "https://pauperscandles.files.wordpress.com/2015/06/azalea-store-window-no-sign.jpg",
        "type": "Consignment",
        "phone": "2085841685"
    },
    {
        "name": "Winter Ridge Natural Foods",
        "summary": "Winter Ridge Natural Foods Market is the largest natural foods store in the two northernmost counties of Idaho. It is located in the heart of Sandpoint and only blocks away from beautiful Lake Pend Oreille.",
        "streetAddress": "703 Lake St",
        "city": "Sandpoint",
        "state": "Idaho",
        "zipCode": "83864",
        "url": "https://www.winterridgefoods.com",
        "longitude": -116.557520,
        "latitude": 48.272060,
        "rating": 4.5,
        "imgUrl": "https://i.pinimg.com/474x/29/2c/cb/292ccb4fcc7b8eed7092d02767ff6449--exterior-winter.jpg",
        "type": "Natural goods",
        "phone": "2082658135"
    },
    {
        "name": "Zero Point",
        "summary": "We are here to support your journey through life by offering products to help your soul prosper, grow your peace, cultivate wisdom, and share in life's abundant delights!",
        "streetAddress": "226 N First Ave",
        "city": "Sandpoint",
        "state": "Idaho",
        "zipCode": "83864",
        "url": "https://zeropointcrystals.com",
        "longitude": -116.547400,
        "latitude": 48.274750,
        "rating": 4.9,
        "imgUrl": "https://cdn.photos.sparkplatform.com/cda/20200916215249379480000000-o.jpg",
        "type": "Gift shop",
        "phone": "2082552522"
    }
]